[
  {
    "name": "#01 香港站 Hong Kong",
    "location": "香港体育馆",
    "setlist-name": "hongkong",
    "date": "2025-10-09 至 2025-10-13",
    "coord": [114.181944, 22.301389],
    "city": "香港特别行政区",
    "province": "香港特别行政区",
    "country": "China"
  },
  {
    "name": "#02 佛山站 Foshan",
    "location": "佛山国际体育文化演艺中心",
    "setlist-name": "foshan",
    "date": "2025-11-15 至 2025-11-16",
    "coord": [113.140953, 22.959949],
    "city": "佛山市",
    "province": "广东省",
    "country": "China"
  },
  {
    "name": "#03 成都站 Chengdu \uD83D\uDC3C ",
    "location": "成都东安湖体育公园多功能体育馆",
    "setlist-name": "chengdu",
    "date": "2025-11-29",
    "coord": [104.13, 30.53],
    "city": "成都市",
    "province": "四川省",
    "country": "China"
  },
  {
    "name": "#04 武汉站 Wuhan \uD83E\uDD5F",
    "location": "武汉体育中心体育馆",
    "setlist-name": "wuhan",
    "date": "2025-12-20",
    "coord": [114.133882, 30.636740],
    "city": "武汉市",
    "province": "湖北省",
    "country": "China"
  },
  {
    "name": "#05 杭州站 Hangzhou",
    "location": "杭州奥体中心体育馆",
    "setlist-name": "hangzhou",
    "date": "2026-01-17 至 2026-01-18",
    "coord": [120.230349, 30.228173],
    "city": "杭州市",
    "province": "浙江省",
    "country": "China"
  },
  {
    "name": "#06 澳门站 Macau \uD83D\uDC0E",
    "location": "澳门威尼斯人综艺馆",
    "setlist-name": "macau",
    "date": "2026-01-31 至 2026-02-01",
    "coord": [113.566, 22.145],
    "city": "澳门特别行政区",
    "province": "澳门特别行政区",
    "country": "China"
  },
  {
    "name": "#07 吉隆坡站 Kuala Lumpur",
    "location": "Axiata Arena",
    "setlist-name": "kualalumpur",
    "date": "2026-03-14",
    "coord": [101.6931889, 3.0538522],
    "city": "Kuala Lumpur",
    "province": "",
    "country": "Malaysia"
  },
  {
    "name": "#08 新加坡站 Singapore",
    "location": "Singapore Indoor Stadium",
    "setlist-name": "singapore",
    "date": "2026-04-04",
    "coord": [103.87909192855807, 1.3499848642830865],
    "city": "Singapore",
    "province": "",
    "country": "Singapore"
  },
  {
    "name": "#09 西安站 Xi'an",
    "location": "西安奥林匹克体育中心",
    "setlist-name": "xi_an",
    "date": "2026-04-25",
    "coord": [108.54728869, 34.18293673],
    "city": "西安市",
    "province": "陕西省",
    "country": "China"
  },
  {
    "name": "#10 广州站 Guangzhou",
    "location": "广州宝能国际体育中心",
    "setlist-name": "guangzhou",
    "date": "2026-05-09 至 2026-05-10",
    "coord": [113.60268500, 23.11605200],
    "city": "广州市",
    "province": "广东省",
    "country": "China"
  }
]
